$GPRMC,054416.000,A,2743.39530,N,11117.92580,E,0.000000,131.070007,040815,,,*29
$GPRMC,054417.000,A,2743.39530,N,11117.92580,E,0.000000,131.070007,040815,,,*28
$GPRMC,054418.000,A,2743.39530,N,11117.92580,E,0.000000,131.070007,040815,,,*27
$GPRMC,054419.000,A,2743.39530,N,11117.92580,E,0.000000,131.070007,040815,,,*26
$GPRMC,054420.000,A,2743.39530,N,11117.92580,E,0.000000,131.070007,040815,,,*2C
$GPRMC,054421.000,A,2743.39530,N,11117.92580,E,0.000000,131.070007,040815,,,*2D
$GPRMC,054422.000,A,2743.39530,N,11117.92580,E,0.000000,131.070007,040815,,,*2E
$GPRMC,054423.000,A,2743.39530,N,11117.92580,E,0.000000,131.070007,040815,,,*2F
$GPRMC,054424.000,A,2743.39530,N,11117.92580,E,0.000000,131.070007,040815,,,*28
$GPRMC,054425.000,A,2743.39420,N,11117.92220,E,0.000000,254.779999,040815,,,*24
$GPRMC,054426.000,A,2743.39390,N,11117.92180,E,0.000000,255.660004,040815,,,*27
$GPRMC,054427.000,A,2743.39370,N,11117.92130,E,0.000000,251.899994,040815,,,*2F
$GPRMC,054428.000,A,2743.39350,N,11117.92110,E,0.000000,241.460007,040815,,,*28
$GPRMC,054429.000,A,2743.39350,N,11117.92060,E,0.000000,241.809998,040815,,,*23
$GPRMC,054430.000,A,2743.39290,N,11117.91950,E,0.000000,236.660004,040815,,,*22
$GPRMC,054431.000,A,2743.39270,N,11117.91910,E,0.000000,221.470001,040815,,,*29
$GPRMC,054432.000,A,2743.39250,N,11117.91880,E,0.000000,214.610001,040815,,,*22
$GPRMC,054433.000,A,2743.39230,N,11117.91910,E,0.000000,195.910004,040815,,,*2D
$GPRMC,054434.000,A,2743.39250,N,11117.92020,E,0.000000,163.660004,040815,,,*24
$GPRMC,054435.000,A,2743.39270,N,11117.92120,E,0.000000,131.729996,040815,,,*2F
$GPRMC,054436.000,A,2743.39380,N,11117.92170,E,0.000000,89.019997,040815,,,*10
$GPRMC,054437.000,A,2743.39420,N,11117.92240,E,0.000000,89.610001,040815,,,*15
$GPRMC,054438.000,A,2743.39430,N,11117.92260,E,0.000000,91.739998,040815,,,*13
$GPRMC,054439.000,A,2743.39410,N,11117.92260,E,0.000000,93.809998,040815,,,*1E
$GPRMC,054440.000,A,2743.39440,N,11117.92280,E,0.000000,89.519997,040815,,,*13
$GPRMC,054441.000,A,2743.39430,N,11117.92210,E,0.000000,86.889999,040815,,,*19
$GPRMC,054442.000,A,2743.39420,N,11117.92170,E,0.000000,85.620003,040815,,,*1A
$GPRMC,054443.000,A,2743.39400,N,11117.92110,E,0.000000,83.779999,040815,,,*1E
$GPRMC,054444.000,A,2743.39430,N,11117.92090,E,0.000000,83.779999,040815,,,*13
$GPRMC,054445.000,A,2743.39410,N,11117.92070,E,0.000000,83.779999,040815,,,*1E
$GPRMC,054446.000,A,2743.39410,N,11117.92070,E,0.000000,83.779999,040815,,,*1D
$GPRMC,054447.000,A,2743.39410,N,11117.92070,E,0.000000,83.779999,040815,,,*1C
$GPRMC,054448.000,A,2743.39410,N,11117.92070,E,0.000000,83.779999,040815,,,*13
$GPRMC,054449.000,A,2743.39410,N,11117.92070,E,0.000000,83.779999,040815,,,*12
$GPRMC,054450.000,A,2743.39410,N,11117.92070,E,0.000000,83.779999,040815,,,*1A
$GPRMC,054451.000,A,2743.39410,N,11117.92070,E,0.000000,83.779999,040815,,,*1B
$GPRMC,054452.000,A,2743.39410,N,11117.92070,E,0.000000,83.779999,040815,,,*18
$GPRMC,054453.000,A,2743.39410,N,11117.92070,E,0.000000,83.779999,040815,,,*19
$GPRMC,054454.000,A,2743.39410,N,11117.92070,E,0.000000,83.779999,040815,,,*1E
$GPRMC,054455.000,A,2743.39410,N,11117.92070,E,0.000000,83.779999,040815,,,*1F
$GPRMC,054456.000,A,2743.39410,N,11117.92070,E,0.000000,83.779999,040815,,,*1C
$GPRMC,054457.000,A,2743.39410,N,11117.92070,E,0.000000,83.779999,040815,,,*1D
$GPRMC,054458.000,A,2743.39410,N,11117.92070,E,0.000000,83.779999,040815,,,*12
$GPRMC,054459.000,A,2743.39410,N,11117.92070,E,0.000000,83.779999,040815,,,*13
$GPRMC,054500.000,A,2743.39410,N,11117.92070,E,0.000000,83.779999,040815,,,*1E
$GPRMC,054501.000,A,2743.39460,N,11117.91920,E,0.000000,306.149994,040815,,,*21
$GPRMC,054502.000,A,2743.39450,N,11117.91800,E,0.000000,304.269989,040815,,,*2D
$GPRMC,054503.000,A,2743.39490,N,11117.91750,E,0.000000,303.239990,040815,,,*20
$GPRMC,054504.000,A,2743.39530,N,11117.91710,E,0.000000,300.000000,040815,,,*23
$GPRMC,054505.000,A,2743.39530,N,11117.91640,E,0.000000,299.320007,040815,,,*21
$GPRMC,054506.000,A,2743.39570,N,11117.91590,E,0.000000,298.100006,040815,,,*28
$GPRMC,054508.000,A,2743.39570,N,11117.91530,E,0.000000,295.839996,040815,,,*22
$GPRMC,054509.000,A,2743.39590,N,11117.91500,E,0.000000,296.299988,040815,,,*22
$GPRMC,054510.000,A,2743.39480,N,11117.91420,E,0.000000,292.269989,040815,,,*23
$GPRMC,054511.000,A,2743.39400,N,11117.91440,E,0.000000,285.029999,040815,,,*2D
$GPRMC,054512.000,A,2743.39380,N,11117.91480,E,0.000000,285.029999,040815,,,*2D
$GPRMC,054513.000,A,2743.39350,N,11117.91470,E,0.000000,285.029999,040815,,,*2E
$GPRMC,054514.000,A,2743.39350,N,11117.91470,E,0.000000,285.029999,040815,,,*29
$GPRMC,054515.000,A,2743.39350,N,11117.91470,E,0.000000,285.029999,040815,,,*28
$GPRMC,054516.000,A,2743.39350,N,11117.91470,E,0.000000,285.029999,040815,,,*2B
$GPRMC,054517.000,A,2743.39350,N,11117.91470,E,0.000000,285.029999,040815,,,*2A
$GPRMC,054518.000,A,2743.39350,N,11117.91470,E,0.000000,285.029999,040815,,,*25
$GPRMC,054519.000,A,2743.39350,N,11117.91470,E,0.000000,285.029999,040815,,,*24
$GPRMC,054520.000,A,2743.39350,N,11117.91470,E,0.000000,285.029999,040815,,,*2E
$GPRMC,054521.000,A,2743.39350,N,11117.91470,E,0.000000,285.029999,040815,,,*2F
$GPRMC,054522.000,A,2743.39350,N,11117.91470,E,0.000000,285.029999,040815,,,*2C
$GPRMC,054523.000,A,2743.39350,N,11117.91470,E,0.000000,285.029999,040815,,,*2D
$GPRMC,054524.000,A,2743.39350,N,11117.91470,E,0.000000,285.029999,040815,,,*2A
$GPRMC,054525.000,A,2743.39350,N,11117.91470,E,0.000000,285.029999,040815,,,*2B
$GPRMC,054526.000,A,2743.39350,N,11117.91470,E,0.000000,285.029999,040815,,,*28
$GPRMC,054527.000,A,2743.39350,N,11117.91470,E,0.000000,285.029999,040815,,,*29
$GPRMC,054528.000,A,2743.39350,N,11117.91470,E,0.000000,285.029999,040815,,,*26
$GPRMC,054529.000,A,2743.39350,N,11117.91470,E,0.000000,285.029999,040815,,,*27
$GPRMC,054530.000,A,2743.39350,N,11117.91470,E,0.000000,285.029999,040815,,,*2F
$GPRMC,054531.000,A,2743.39350,N,11117.91470,E,0.000000,285.029999,040815,,,*2E
$GPRMC,054532.000,A,2743.39350,N,11117.91470,E,0.000000,285.029999,040815,,,*2D
$GPRMC,054533.000,A,2743.39350,N,11117.91470,E,0.000000,285.029999,040815,,,*2C
$GPRMC,054534.000,A,2743.39350,N,11117.91470,E,0.000000,285.029999,040815,,,*2B
$GPRMC,054535.000,A,2743.39350,N,11117.91470,E,0.000000,285.029999,040815,,,*2A
$GPRMC,054536.000,A,2743.39350,N,11117.91470,E,0.000000,285.029999,040815,,,*29
$GPRMC,054537.000,A,2743.39350,N,11117.91470,E,0.000000,285.029999,040815,,,*28
$GPRMC,054538.000,A,2743.39350,N,11117.91470,E,0.000000,285.029999,040815,,,*27
$GPRMC,054539.000,A,2743.39350,N,11117.91470,E,0.000000,285.029999,040815,,,*26
$GPRMC,054540.000,A,2743.39350,N,11117.91470,E,0.000000,285.029999,040815,,,*28
$GPRMC,054541.000,A,2743.39350,N,11117.92110,E,0.000000,66.550003,040815,,,*17
$GPRMC,054542.000,A,2743.39410,N,11117.92350,E,0.000000,65.760002,040815,,,*12
$GPRMC,054543.000,A,2743.39240,N,11117.92680,E,0.000000,68.330002,040815,,,*14
$GPRMC,054544.000,A,2743.39220,N,11117.92770,E,0.000000,71.019997,040815,,,*1E
$GPRMC,054545.000,A,2743.39220,N,11117.92980,E,0.000000,73.059998,040815,,,*17
$GPRMC,054546.000,A,2743.39220,N,11117.93170,E,0.000000,75.050003,040815,,,*16
$GPRMC,054547.000,A,2743.39240,N,11117.93280,E,0.000000,77.110001,040815,,,*18
$GPRMC,054548.000,A,2743.39470,N,11117.93570,E,0.000000,78.480003,040815,,,*1B
$GPRMC,054549.000,A,2743.39490,N,11117.93690,E,0.000000,79.680000,040815,,,*19
$GPRMC,054550.000,A,2743.39490,N,11117.93850,E,0.000000,92.589996,040815,,,*1A
$GPRMC,054551.000,A,2743.39480,N,11117.93980,E,0.000000,94.080002,040815,,,*18
$GPRMC,054552.000,A,2743.39460,N,11117.94100,E,0.000000,93.339996,040815,,,*10
$GPRMC,054553.000,A,2743.39420,N,11117.94210,E,0.000000,93.110001,040815,,,*19
$GPRMC,054554.000,A,2743.39420,N,11117.94310,E,0.000000,92.220001,040815,,,*1E
$GPRMC,054555.000,A,2743.39410,N,11117.94390,E,0.000000,92.199997,040815,,,*13
$GPRMC,054556.000,A,2743.39430,N,11117.94470,E,0.000000,91.139999,040815,,,*1C
$GPRMC,054557.000,A,2743.39380,N,11117.94550,E,0.000000,91.910004,040815,,,*1C
$GPRMC,054558.000,A,2743.39390,N,11117.94610,E,0.000000,92.800003,040815,,,*11
$GPRMC,054559.000,A,2743.39420,N,11117.94700,E,0.000000,100.800003,040815,,,*26
$GPRMC,054600.000,A,2743.39440,N,11117.94780,E,0.000000,101.419998,040815,,,*29
$GPRMC,054601.000,A,2743.39430,N,11117.94840,E,0.000000,101.370003,040815,,,*2F
$GPRMC,054602.000,A,2743.39370,N,11117.94910,E,0.000000,103.949997,040815,,,*2D
$GPRMC,054603.000,A,2743.39330,N,11117.94960,E,0.000000,110.220001,040815,,,*2F
$GPRMC,054604.000,A,2743.39320,N,11117.95020,E,0.000000,111.099998,040815,,,*2D
$GPRMC,054605.000,A,2743.39330,N,11117.95100,E,0.000000,108.720001,040815,,,*2A
$GPRMC,054606.000,A,2743.39270,N,11117.95120,E,0.000000,107.220001,040815,,,*24
$GPRMC,054607.000,A,2743.39240,N,11117.95180,E,0.000000,114.209999,040815,,,*2D
$GPRMC,054608.000,A,2743.39240,N,11117.95240,E,0.000000,112.220001,040815,,,*28
$GPRMC,054609.000,A,2743.39280,N,11117.95300,E,0.000000,111.379997,040815,,,*28
$GPRMC,054610.000,A,2743.39340,N,11117.95350,E,0.000000,97.779999,040815,,,*1D
$GPRMC,054611.000,A,2743.39380,N,11117.95420,E,0.000000,95.000000,040815,,,*12
$GPRMC,054612.000,A,2743.39400,N,11117.95460,E,0.000000,95.349998,040815,,,*1C
$GPRMC,054613.000,A,2743.39430,N,11117.95550,E,0.000000,98.809998,040815,,,*1E
$GPRMC,054614.000,A,2743.39430,N,11117.95600,E,0.000000,100.620003,040815,,,*21
$GPRMC,054615.000,A,2743.39420,N,11117.95670,E,0.000000,102.500000,040815,,,*26
$GPRMC,054616.000,A,2743.39410,N,11117.95720,E,0.000000,107.580002,040815,,,*2D
$GPRMC,054617.000,A,2743.39360,N,11117.95830,E,0.000000,109.500000,040815,,,*26
$GPRMC,054618.000,A,2743.39360,N,11117.95890,E,0.000000,111.620003,040815,,,*28
$GPRMC,054619.000,A,2743.39190,N,11117.95930,E,0.000000,127.169998,040815,,,*2B
$GPRMC,054620.000,A,2743.39130,N,11117.95950,E,1.450783,133.210007,040815,,,*26
$GPRMC,054621.000,A,2743.38990,N,11117.95990,E,1.842995,143.360001,040815,,,*29
$GPRMC,054622.000,A,2743.38870,N,11117.96010,E,0.000000,150.649994,040815,,,*24
$GPRMC,054623.000,A,2743.38760,N,11117.96010,E,0.000000,159.610001,040815,,,*2B
$GPRMC,054624.000,A,2743.38580,N,11117.96030,E,0.000000,159.570007,040815,,,*21
$GPRMC,054625.000,A,2743.38410,N,11117.96020,E,0.000000,160.229996,040815,,,*29
$GPRMC,054626.000,A,2743.38320,N,11117.96010,E,2.679446,161.309998,040815,,,*2D
$GPRMC,054627.000,A,2743.38260,N,11117.96030,E,0.000000,162.369995,040815,,,*2F
$GPRMC,054628.000,A,2743.38190,N,11117.96060,E,0.000000,163.600006,040815,,,*21
$GPRMC,054629.000,A,2743.38130,N,11117.96110,E,2.181177,164.809998,040815,,,*29
$GPRMC,054630.000,A,2743.38080,N,11117.96150,E,2.183178,166.380005,040815,,,*27
$GPRMC,054631.000,A,2743.38010,N,11117.96160,E,2.113140,167.990005,040815,,,*24
$GPRMC,054632.000,A,2743.37950,N,11117.96180,E,2.114141,169.399994,040815,,,*21
$GPRMC,054633.000,A,2743.37860,N,11117.96230,E,2.120144,170.949997,040815,,,*24
$GPRMC,054634.000,A,2743.37780,N,11117.96140,E,2.149160,172.410004,040815,,,*2F
$GPRMC,054635.000,A,2743.37710,N,11117.95950,E,2.141155,174.000000,040815,,,*24
$GPRMC,054636.000,A,2743.37650,N,11117.95920,E,0.000000,175.559998,040815,,,*22
$GPRMC,054637.000,A,2743.37600,N,11117.95890,E,2.182178,177.160004,040815,,,*2B
$GPRMC,054638.000,A,2743.37520,N,11117.95890,E,0.000000,178.509995,040815,,,*27
$GPRMC,054639.000,A,2743.37470,N,11117.95890,E,0.000000,179.899994,040815,,,*26
$GPRMC,054640.000,A,2743.37440,N,11117.95900,E,0.000000,180.919998,040815,,,*20
$GPRMC,054641.000,A,2743.37420,N,11117.95900,E,0.000000,181.990005,040815,,,*2A
$GPRMC,054642.000,A,2743.37380,N,11117.95900,E,0.000000,182.789993,040815,,,*27
$GPRMC,054643.000,A,2743.37330,N,11117.95910,E,0.000000,184.330002,040815,,,*2D
$GPRMC,054644.000,A,2743.37300,N,11117.95910,E,0.000000,185.600006,040815,,,*2A
$GPRMC,054645.000,A,2743.37240,N,11117.95950,E,0.000000,175.470001,040815,,,*27
$GPRMC,054646.000,A,2743.37190,N,11117.95960,E,0.000000,176.229996,040815,,,*27
$GPRMC,054647.000,A,2743.37140,N,11117.95960,E,0.000000,178.250000,040815,,,*2D
$GPRMC,054648.000,A,2743.37100,N,11117.95980,E,0.000000,177.309998,040815,,,*22
$GPRMC,054649.000,A,2743.37010,N,11117.96050,E,0.000000,167.190002,040815,,,*2D
$GPRMC,054650.000,A,2743.36940,N,11117.96060,E,0.000000,168.779999,040815,,,*2E
$GPRMC,054651.000,A,2743.36830,N,11117.96130,E,0.000000,169.740005,040815,,,*2A
$GPRMC,054652.000,A,2743.36760,N,11117.96170,E,0.000000,168.500000,040815,,,*25
$GPRMC,054653.000,A,2743.36700,N,11117.96170,E,0.000000,169.740005,040815,,,*20
$GPRMC,054654.000,A,2743.36610,N,11117.95890,E,1.716927,181.300003,040815,,,*2E
$GPRMC,054655.000,A,2743.36550,N,11117.95890,E,0.000000,182.429993,040815,,,*2A
$GPRMC,054656.000,A,2743.36490,N,11117.95930,E,0.000000,181.580002,040815,,,*2F
$GPRMC,054657.000,A,2743.36420,N,11117.95920,E,0.000000,180.089996,040815,,,*2D
$GPRMC,054658.000,A,2743.36330,N,11117.95770,E,0.000000,178.029999,040815,,,*2D
$GPRMC,054659.000,A,2743.36240,N,11117.95670,E,0.000000,176.559998,040815,,,*26
$GPRMC,054700.000,A,2743.36180,N,11117.95480,E,0.000000,177.149994,040815,,,*21
$GPRMC,054701.000,A,2743.36100,N,11117.95500,E,0.000000,176.220001,040815,,,*29
$GPRMC,054702.000,A,2743.36010,N,11117.95540,E,0.000000,168.759995,040815,,,*2E
$GPRMC,054703.000,A,2743.35930,N,11117.95540,E,1.976066,169.330002,040815,,,*23
$GPRMC,054704.000,A,2743.35870,N,11117.95530,E,0.000000,170.919998,040815,,,*2C
$GPRMC,054705.000,A,2743.35820,N,11117.95530,E,2.436315,172.800003,040815,,,*2C
$GPRMC,054706.000,A,2743.35780,N,11117.95500,E,2.491344,174.649994,040815,,,*22
$GPRMC,054712.000,A,2743.35410,N,11117.95390,E,0.000000,192.220001,040815,,,*29
$GPRMC,054713.000,A,2743.35380,N,11117.95380,E,0.000000,187.119995,040815,,,*2E
$GPRMC,054714.000,A,2743.35330,N,11117.95400,E,0.000000,180.539993,040815,,,*2A
$GPRMC,054715.000,A,2743.35260,N,11117.95410,E,0.000000,179.470001,040815,,,*26
$GPRMC,054716.000,A,2743.35190,N,11117.95420,E,0.000000,179.279999,040815,,,*2D
$GPRMC,054717.000,A,2743.35150,N,11117.95430,E,0.000000,179.850006,040815,,,*2F
$GPRMC,054718.000,A,2743.35120,N,11117.95430,E,0.000000,190.399994,040815,,,*2C
$GPRMC,054719.000,A,2743.35050,N,11117.95430,E,0.000000,189.789993,040815,,,*21
$GPRMC,054720.000,A,2743.34980,N,11117.95410,E,1.910031,190.320007,040815,,,*2C
$GPRMC,054721.000,A,2743.34910,N,11117.95380,E,2.087126,192.949997,040815,,,*2E
$GPRMC,054722.000,A,2743.34890,N,11117.95390,E,2.012086,193.440002,040815,,,*22
$GPRMC,054723.000,A,2743.34830,N,11117.95390,E,2.055109,192.110001,040815,,,*2E
$GPRMC,054724.000,A,2743.34790,N,11117.95380,E,0.000000,193.750000,040815,,,*25
$GPRMC,054725.000,A,2743.34730,N,11117.95390,E,0.000000,185.440002,040815,,,*28
$GPRMC,054726.000,A,2743.34650,N,11117.95390,E,0.000000,176.949997,040815,,,*21
$GPRMC,054727.000,A,2743.34580,N,11117.95370,E,0.000000,177.500000,040815,,,*27
$GPRMC,054728.000,A,2743.34560,N,11117.95370,E,0.000000,178.369995,040815,,,*25
$GPRMC,054729.000,A,2743.34500,N,11117.95380,E,0.000000,178.880005,040815,,,*21
$GPRMC,054730.000,A,2743.34460,N,11117.95370,E,0.000000,179.570007,040815,,,*20
$GPRMC,054731.000,A,2743.34430,N,11117.95370,E,0.000000,191.320007,040815,,,*21
$GPRMC,054732.000,A,2743.34370,N,11117.95360,E,0.000000,190.820007,040815,,,*2A
$GPRMC,054733.000,A,2743.34280,N,11117.95350,E,0.000000,190.210007,040815,,,*2F
$GPRMC,054734.000,A,2743.34230,N,11117.95360,E,0.000000,189.589996,040815,,,*2E
$GPRMC,054735.000,A,2743.34180,N,11117.95390,E,0.000000,188.720001,040815,,,*2F
$GPRMC,054736.000,A,2743.34170,N,11117.95400,E,0.000000,178.809998,040815,,,*2F
$GPRMC,054737.000,A,2743.34140,N,11117.95410,E,0.000000,178.740005,040815,,,*23
$GPRMC,054738.000,A,2743.34110,N,11117.95460,E,0.000000,169.360001,040815,,,*2C
$GPRMC,054739.000,A,2743.34060,N,11117.95460,E,0.000000,170.080002,040815,,,*2D
$GPRMC,054740.000,A,2743.34000,N,11117.95440,E,0.000000,171.729996,040815,,,*26
$GPRMC,054741.000,A,2743.33970,N,11117.95450,E,0.000000,173.039993,040815,,,*2E
$GPRMC,054742.000,A,2743.33930,N,11117.95470,E,0.000000,174.070007,040815,,,*25
$GPRMC,054743.000,A,2743.33870,N,11117.95490,E,0.000000,175.199997,040815,,,*28
$GPRMC,054744.000,A,2743.33800,N,11117.95520,E,0.000000,176.479996,040815,,,*2B
$GPRMC,054745.000,A,2743.33770,N,11117.95550,E,0.000000,177.479996,040815,,,*24
$GPRMC,054746.000,A,2743.33720,N,11117.95560,E,0.000000,178.410004,040815,,,*23
$GPRMC,054747.000,A,2743.33660,N,11117.95580,E,0.000000,184.699997,040815,,,*2A
$GPRMC,054748.000,A,2743.33610,N,11117.95590,E,0.000000,187.220001,040815,,,*20
$GPRMC,054749.000,A,2743.33560,N,11117.95620,E,0.000000,185.539993,040815,,,*22
$GPRMC,054750.000,A,2743.33520,N,11117.95620,E,0.000000,185.470001,040815,,,*20
$GPRMC,054751.000,A,2743.33450,N,11117.95650,E,0.000000,183.169998,040815,,,*22
$GPRMC,054752.000,A,2743.33410,N,11117.95680,E,0.000000,182.539993,040815,,,*23
$GPRMC,054753.000,A,2743.33340,N,11117.95680,E,0.000000,182.289993,040815,,,*2C
$GPRMC,054754.000,A,2743.33270,N,11117.95690,E,0.000000,183.860001,040815,,,*26
$GPRMC,054755.000,A,2743.33220,N,11117.95700,E,0.000000,185.020004,040815,,,*25
$GPRMC,054756.000,A,2743.33210,N,11117.95740,E,0.000000,182.940002,040815,,,*2F
$GPRMC,054757.000,A,2743.33210,N,11117.95810,E,0.000000,173.419998,040815,,,*21
$GPRMC,054758.000,A,2743.33220,N,11117.95820,E,0.000000,175.309998,040815,,,*2E
$GPRMC,054759.000,A,2743.33180,N,11117.95820,E,0.000000,176.990005,040815,,,*22
$GPRMC,054800.000,A,2743.33130,N,11117.95810,E,0.000000,179.380005,040815,,,*2D
$GPRMC,054801.000,A,2743.33080,N,11117.95870,E,0.000000,170.770004,040815,,,*23
$GPRMC,054802.000,A,2743.33070,N,11117.95870,E,0.000000,172.199997,040815,,,*2F
$GPRMC,054803.000,A,2743.33060,N,11117.95910,E,0.000000,171.770004,040815,,,*29
$GPRMC,054804.000,A,2743.33070,N,11117.95920,E,0.000000,172.470001,040815,,,*29
$GPRMC,054805.000,A,2743.33070,N,11117.95910,E,0.000000,175.679993,040815,,,*25
$GPRMC,054806.000,A,2743.33070,N,11117.95850,E,0.000000,189.419998,040815,,,*2F
$GPRMC,054807.000,A,2743.32990,N,11117.95800,E,0.000000,196.869995,040815,,,*25
$GPRMC,054808.000,A,2743.33070,N,11117.95560,E,0.000000,236.449997,040815,,,*22
$GPRMC,054809.000,A,2743.33170,N,11117.95450,E,0.000000,252.309998,040815,,,*2E
$GPRMC,054810.000,A,2743.33210,N,11117.95230,E,0.000000,268.299988,040815,,,*23
$GPRMC,054811.000,A,2743.33190,N,11117.95060,E,0.000000,266.790009,040815,,,*2C
$GPRMC,054812.000,A,2743.33180,N,11117.94930,E,0.000000,266.600006,040815,,,*24
$GPRMC,054813.000,A,2743.33130,N,11117.94780,E,0.000000,263.600006,040815,,,*2E
$GPRMC,054814.000,A,2743.33040,N,11117.94590,E,0.000000,263.029999,040815,,,*2E
$GPRMC,054815.000,A,2743.33000,N,11117.94440,E,0.000000,262.339996,040815,,,*2B
$GPRMC,054816.000,A,2743.32980,N,11117.94310,E,0.000000,261.309998,040815,,,*24
$GPRMC,054817.000,A,2743.32910,N,11117.94210,E,0.000000,254.639999,040815,,,*2C
$GPRMC,054818.000,A,2743.32830,N,11117.94100,E,0.000000,252.179993,040815,,,*2D
$GPRMC,054819.000,A,2743.32700,N,11117.93900,E,0.000000,254.210007,040815,,,*21
$GPRMC,054820.000,A,2743.32680,N,11117.93840,E,0.000000,253.139999,040815,,,*26
$GPRMC,054821.000,A,2743.32680,N,11117.93720,E,0.000000,257.679993,040815,,,*23
$GPRMC,054822.000,A,2743.32630,N,11117.93550,E,0.000000,256.540009,040815,,,*2C
$GPRMC,054823.000,A,2743.32660,N,11117.93460,E,0.000000,257.149994,040815,,,*2B
$GPRMC,054824.000,A,2743.32720,N,11117.93390,E,0.000000,258.369995,040815,,,*2F
$GPRMC,054825.000,A,2743.32710,N,11117.93310,E,0.000000,259.320007,040815,,,*2B
$GPRMC,054826.000,A,2743.32690,N,11117.93240,E,0.000000,259.910004,040815,,,*2F
$GPRMC,054827.000,A,2743.32690,N,11117.93170,E,0.000000,260.670013,040815,,,*2B
$GPRMC,054828.000,A,2743.32670,N,11117.93100,E,0.000000,263.459991,040815,,,*24
$GPRMC,054829.000,A,2743.32590,N,11117.93010,E,0.000000,256.760010,040815,,,*27
$GPRMC,054830.000,A,2743.32530,N,11117.92920,E,0.000000,252.470001,040815,,,*28
$GPRMC,054831.000,A,2743.32480,N,11117.92840,E,0.000000,249.529999,040815,,,*2B
$GPRMC,054832.000,A,2743.32460,N,11117.92750,E,0.000000,251.160004,040815,,,*25
$GPRMC,054833.000,A,2743.32400,N,11117.92660,E,0.000000,249.550003,040815,,,*29
$GPRMC,054834.000,A,2743.32320,N,11117.92580,E,0.000000,246.869995,040815,,,*28
$GPRMC,054835.000,A,2743.32140,N,11117.92400,E,0.000000,246.339996,040815,,,*29
$GPRMC,054836.000,A,2743.32130,N,11117.92320,E,0.000000,243.229996,040815,,,*2D
$GPRMC,054837.000,A,2743.32090,N,11117.92180,E,0.000000,243.270004,040815,,,*21
$GPRMC,054838.000,A,2743.31960,N,11117.92140,E,0.000000,243.160004,040815,,,*25
$GPRMC,054839.000,A,2743.31940,N,11117.92040,E,0.000000,244.520004,040815,,,*20
$GPRMC,054840.000,A,2743.31890,N,11117.91980,E,0.000000,256.820007,040815,,,*29
$GPRMC,054841.000,A,2743.31830,N,11117.91960,E,0.000000,255.589996,040815,,,*20
$GPRMC,054842.000,A,2743.31760,N,11117.91900,E,0.000000,252.559998,040815,,,*2B
$GPRMC,054843.000,A,2743.31680,N,11117.91850,E,0.000000,251.660004,040815,,,*27
$GPRMC,054844.000,A,2743.31660,N,11117.91810,E,0.000000,251.020004,040815,,,*28
$GPRMC,054845.000,A,2743.31690,N,11117.91790,E,0.000000,250.550003,040815,,,*25
$GPRMC,054846.000,A,2743.31750,N,11117.91770,E,0.000000,250.440002,040815,,,*24
$GPRMC,054847.000,A,2743.31900,N,11117.91820,E,0.000000,264.820007,040815,,,*2C
$GPRMC,054848.000,A,2743.32020,N,11117.91850,E,0.000000,278.720001,040815,,,*28
$GPRMC,054849.000,A,2743.32140,N,11117.91880,E,0.000000,295.839996,040815,,,*20
$GPRMC,054850.000,A,2743.32230,N,11117.91900,E,0.000000,308.850006,040815,,,*2F
$GPRMC,054851.000,A,2743.32280,N,11117.91920,E,0.000000,316.049988,040815,,,*27
$GPRMC,054852.000,A,2743.32310,N,11117.91930,E,0.000000,324.010010,040815,,,*28
$GPRMC,054853.000,A,2743.32330,N,11117.91930,E,0.000000,324.010010,040815,,,*2B
$GPRMC,054854.000,A,2743.32330,N,11117.91930,E,0.000000,324.010010,040815,,,*2C
$GPRMC,054855.000,A,2743.32330,N,11117.91930,E,0.000000,324.010010,040815,,,*2D
$GPRMC,054856.000,A,2743.32330,N,11117.91930,E,0.000000,324.010010,040815,,,*2E
$GPRMC,054857.000,A,2743.32330,N,11117.91930,E,0.000000,324.010010,040815,,,*2F
$GPRMC,054858.000,A,2743.32330,N,11117.91930,E,0.000000,324.010010,040815,,,*20
$GPRMC,054859.000,A,2743.32330,N,11117.91930,E,0.000000,324.010010,040815,,,*21
$GPRMC,054900.000,A,2743.32330,N,11117.91930,E,0.000000,324.010010,040815,,,*2C
$GPRMC,054901.000,A,2743.32500,N,11117.91950,E,0.000000,357.570007,040815,,,*2F
$GPRMC,054902.000,A,2743.32580,N,11117.91950,E,0.000000,355.779999,040815,,,*23
$GPRMC,054903.000,A,2743.32670,N,11117.91940,E,0.000000,351.049988,040815,,,*2F
$GPRMC,054904.000,A,2743.32750,N,11117.91960,E,0.000000,6.500000,040815,,,*29
$GPRMC,054905.000,A,2743.32770,N,11117.91960,E,0.000000,10.540000,040815,,,*19
$GPRMC,054906.000,A,2743.32820,N,11117.91950,E,0.000000,7.490000,040815,,,*29
$GPRMC,054907.000,A,2743.32870,N,11117.91890,E,0.000000,5.480000,040815,,,*23
$GPRMC,054908.000,A,2743.32990,N,11117.91870,E,0.000000,3.430000,040815,,,*20
$GPRMC,054909.000,A,2743.33140,N,11117.91860,E,0.000000,0.430000,040815,,,*27
$GPRMC,054910.000,A,2743.33240,N,11117.91840,E,0.000000,357.850006,040815,,,*23
$GPRMC,054911.000,A,2743.33350,N,11117.91820,E,0.000000,352.359985,040815,,,*21
$GPRMC,054912.000,A,2743.33390,N,11117.91830,E,0.000000,351.910004,040815,,,*2B
$GPRMC,054913.000,A,2743.33560,N,11117.91860,E,0.000000,354.649994,040815,,,*20
$GPRMC,054914.000,A,2743.33630,N,11117.91870,E,0.000000,356.290009,040815,,,*2F
$GPRMC,054915.000,A,2743.33660,N,11117.91880,E,0.000000,0.540000,040815,,,*27
$GPRMC,054916.000,A,2743.33700,N,11117.91920,E,0.000000,22.129999,040815,,,*1A
$GPRMC,054917.000,A,2743.33670,N,11117.91890,E,0.000000,21.340000,040815,,,*10
$GPRMC,054918.000,A,2743.33750,N,11117.91910,E,0.000000,20.379999,040815,,,*17
$GPRMC,054919.000,A,2743.33810,N,11117.91940,E,0.000000,19.610001,040815,,,*10
$GPRMC,054920.000,A,2743.33870,N,11117.91920,E,0.000000,18.940001,040815,,,*11
$GPRMC,054921.000,A,2743.33870,N,11117.91900,E,0.000000,358.779999,040815,,,*29
$GPRMC,054922.000,A,2743.33890,N,11117.91870,E,0.000000,346.899994,040815,,,*21
$GPRMC,054923.000,A,2743.33930,N,11117.91870,E,0.000000,347.709991,040815,,,*29
$GPRMC,054924.000,A,2743.33930,N,11117.91870,E,0.000000,347.709991,040815,,,*2E
$GPRMC,054925.000,A,2743.33930,N,11117.91870,E,0.000000,347.709991,040815,,,*2F
$GPRMC,054926.000,A,2743.33930,N,11117.91870,E,0.000000,347.709991,040815,,,*2C
$GPRMC,054927.000,A,2743.34110,N,11117.91810,E,0.000000,349.859985,040815,,,*27
$GPRMC,054928.000,A,2743.34270,N,11117.91820,E,0.000000,350.769989,040815,,,*26
$GPRMC,054929.000,A,2743.34440,N,11117.91820,E,0.000000,351.570007,040815,,,*26
$GPRMC,054930.000,A,2743.34590,N,11117.91820,E,0.000000,1.160000,040815,,,*26
$GPRMC,054931.000,A,2743.34660,N,11117.91860,E,0.000000,8.030000,040815,,,*22
$GPRMC,054932.000,A,2743.34720,N,11117.91890,E,0.000000,9.860000,040815,,,*27
$GPRMC,054933.000,A,2743.34810,N,11117.91920,E,0.000000,9.670000,040815,,,*2F
$GPRMC,054934.000,A,2743.34870,N,11117.91900,E,0.000000,6.760000,040815,,,*23
$GPRMC,054935.000,A,2743.34910,N,11117.91890,E,0.000000,3.470000,040815,,,*2A
$GPRMC,054936.000,A,2743.35000,N,11117.91930,E,0.000000,4.590000,040815,,,*23
$GPRMC,054937.000,A,2743.35130,N,11117.92030,E,0.000000,7.680000,040815,,,*2B
$GPRMC,054938.000,A,2743.35230,N,11117.92060,E,0.000000,10.140000,040815,,,*1F
$GPRMC,054939.000,A,2743.35340,N,11117.92110,E,0.000000,11.160000,040815,,,*1D
$GPRMC,054940.000,A,2743.35480,N,11117.92100,E,0.000000,4.860000,040815,,,*24
$GPRMC,054941.000,A,2743.35610,N,11117.92120,E,0.000000,3.150000,040815,,,*21
$GPRMC,054942.000,A,2743.35730,N,11117.92190,E,0.000000,5.030000,040815,,,*2B
$GPRMC,054943.000,A,2743.35880,N,11117.92130,E,0.000000,5.020000,040815,,,*25
$GPRMC,054944.000,A,2743.36000,N,11117.92080,E,0.000000,3.760000,040815,,,*2E
$GPRMC,054945.000,A,2743.36080,N,11117.92110,E,0.000000,4.140000,040815,,,*2C
$GPRMC,054946.000,A,2743.36140,N,11117.92140,E,0.000000,4.950000,040815,,,*2E
$GPRMC,054947.000,A,2743.36200,N,11117.92170,E,0.000000,5.230000,040815,,,*27
$GPRMC,054948.000,A,2743.36260,N,11117.92200,E,0.000000,6.500000,040815,,,*2D
$GPRMC,054949.000,A,2743.36340,N,11117.92230,E,0.000000,8.280000,040815,,,*2D
$GPRMC,054950.000,A,2743.36440,N,11117.92250,E,0.000000,9.390000,040815,,,*25
$GPRMC,054951.000,A,2743.36500,N,11117.92260,E,0.000000,9.540000,040815,,,*29
$GPRMC,054952.000,A,2743.36580,N,11117.92260,E,0.000000,8.420000,040815,,,*24
$GPRMC,054953.000,A,2743.36630,N,11117.92250,E,0.000000,0.330000,040815,,,*20
$GPRMC,054954.000,A,2743.36680,N,11117.92290,E,0.000000,3.680000,040815,,,*2D
$GPRMC,054955.000,A,2743.36730,N,11117.92290,E,0.000000,4.580000,040815,,,*22
$GPRMC,054956.000,A,2743.36790,N,11117.92300,E,0.000000,4.670000,040815,,,*2F
$GPRMC,054957.000,A,2743.36830,N,11117.92310,E,0.000000,4.870000,040815,,,*24
$GPRMC,054958.000,A,2743.36920,N,11117.92330,E,0.000000,6.170000,040815,,,*22
$GPRMC,054959.000,A,2743.37020,N,11117.92340,E,0.000000,5.370000,040815,,,*2D
$GPRMC,055000.000,A,2743.37060,N,11117.92380,E,0.000000,4.520000,040815,,,*23
$GPRMC,055001.000,A,2743.37100,N,11117.92450,E,0.000000,8.230000,040815,,,*25
$GPRMC,055002.000,A,2743.37150,N,11117.92520,E,0.000000,10.390000,040815,,,*17
$GPRMC,055003.000,A,2743.37230,N,11117.92590,E,0.000000,13.160000,040815,,,*16
$GPRMC,055004.000,A,2743.37350,N,11117.92640,E,0.000000,14.020000,040815,,,*1A
$GPRMC,055005.000,A,2743.37470,N,11117.92670,E,0.000000,12.940000,040815,,,*14
$GPRMC,055006.000,A,2743.37560,N,11117.92660,E,0.000000,9.630000,040815,,,*24
$GPRMC,055007.000,A,2743.37650,N,11117.92520,E,0.000000,6.790000,040815,,,*26
$GPRMC,055008.000,A,2743.37720,N,11117.92580,E,0.000000,8.610000,040815,,,*22
$GPRMC,055009.000,A,2743.37760,N,11117.92630,E,0.000000,9.890000,040815,,,*28
$GPRMC,055010.000,A,2743.37840,N,11117.92650,E,0.000000,8.740000,040815,,,*28
$GPRMC,055011.000,A,2743.37890,N,11117.92650,E,0.000000,8.670000,040815,,,*26
$GPRMC,055012.000,A,2743.37940,N,11117.92700,E,0.000000,9.380000,040815,,,*26
$GPRMC,055013.000,A,2743.37930,N,11117.92560,E,0.000000,9.810000,040815,,,*26
$GPRMC,055014.000,A,2743.37970,N,11117.92470,E,0.000000,8.800000,040815,,,*25
$GPRMC,055015.000,A,2743.37900,N,11117.92510,E,0.000000,9.340000,040815,,,*2A
$GPRMC,055016.000,A,2743.37940,N,11117.92530,E,0.000000,10.630000,040815,,,*15
$GPRMC,055017.000,A,2743.37970,N,11117.92530,E,0.000000,20.010000,040815,,,*10
$GPRMC,055018.000,A,2743.38000,N,11117.92520,E,0.000000,19.309999,040815,,,*17
$GPRMC,055019.000,A,2743.38040,N,11117.92520,E,0.000000,17.660000,040815,,,*1F
$GPRMC,055020.000,A,2743.38080,N,11117.92460,E,0.000000,353.549988,040815,,,*2E
$GPRMC,055021.000,A,2743.38110,N,11117.92460,E,0.000000,354.440002,040815,,,*23
$GPRMC,055022.000,A,2743.38120,N,11117.92460,E,0.000000,356.350006,040815,,,*23
$GPRMC,055023.000,A,2743.38160,N,11117.92480,E,0.000000,4.380000,040815,,,*27
$GPRMC,055024.000,A,2743.38190,N,11117.92500,E,0.000000,11.640000,040815,,,*1B
$GPRMC,055025.000,A,2743.38210,N,11117.92510,E,0.000000,12.390000,040815,,,*1B
$GPRMC,055026.000,A,2743.38260,N,11117.92500,E,0.000000,19.070000,040815,,,*18
$GPRMC,055027.000,A,2743.38300,N,11117.92520,E,0.000000,26.969999,040815,,,*18
$GPRMC,055028.000,A,2743.38340,N,11117.92540,E,0.000000,26.049999,040815,,,*1E
$GPRMC,055029.000,A,2743.38390,N,11117.92620,E,0.000000,28.180000,040815,,,*14
$GPRMC,055030.000,A,2743.38320,N,11117.92700,E,0.000000,58.290001,040815,,,*10
$GPRMC,055031.000,A,2743.38330,N,11117.92760,E,0.000000,62.320000,040815,,,*14
$GPRMC,055032.000,A,2743.38360,N,11117.92790,E,0.000000,59.770000,040815,,,*14
$GPRMC,055033.000,A,2743.38390,N,11117.92800,E,0.000000,48.009998,040815,,,*1D
$GPRMC,055034.000,A,2743.38420,N,11117.92820,E,0.000000,44.599998,040815,,,*14
$GPRMC,055035.000,A,2743.38450,N,11117.92840,E,0.000000,44.669998,040815,,,*18
$GPRMC,055036.000,A,2743.38450,N,11117.92830,E,0.000000,39.080002,040815,,,*1D
$GPRMC,055037.000,A,2743.38460,N,11117.92810,E,0.000000,26.940001,040815,,,*15
$GPRMC,055038.000,A,2743.38510,N,11117.92760,E,0.000000,355.000000,040815,,,*2F
$GPRMC,055039.000,A,2743.38510,N,11117.92760,E,0.000000,355.000000,040815,,,*2E
$GPRMC,055040.000,A,2743.38660,N,11117.92590,E,0.000000,326.089996,040815,,,*2A
$GPRMC,055041.000,A,2743.38690,N,11117.92590,E,0.000000,327.260010,040815,,,*27
$GPRMC,055042.000,A,2743.38700,N,11117.92590,E,0.000000,330.589996,040815,,,*2D
$GPRMC,055043.000,A,2743.38750,N,11117.92620,E,0.000000,345.450012,040815,,,*23
$GPRMC,055044.000,A,2743.38820,N,11117.92630,E,0.000000,349.230011,040815,,,*22
$GPRMC,055045.000,A,2743.38860,N,11117.92610,E,0.000000,348.200012,040815,,,*24
$GPRMC,055046.000,A,2743.38900,N,11117.92660,E,0.000000,359.269989,040815,,,*23
$GPRMC,055047.000,A,2743.38950,N,11117.92750,E,0.000000,17.969999,040815,,,*16
$GPRMC,055048.000,A,2743.38970,N,11117.92820,E,0.000000,30.389999,040815,,,*12
$GPRMC,055049.000,A,2743.38980,N,11117.92850,E,0.000000,33.389999,040815,,,*18
$GPRMC,055050.000,A,2743.39070,N,11117.92910,E,0.000000,32.709999,040815,,,*1F
$GPRMC,055051.000,A,2743.39210,N,11117.92980,E,0.000000,27.010000,040815,,,*11
$GPRMC,055052.000,A,2743.39430,N,11117.93020,E,0.000000,18.340000,040815,,,*1E
$GPRMC,055053.000,A,2743.39510,N,11117.93070,E,0.000000,19.250000,040815,,,*18
$GPRMC,055054.000,A,2743.39580,N,11117.93180,E,0.000000,19.920000,040815,,,*14
$GPRMC,055055.000,A,2743.39660,N,11117.93280,E,0.000000,20.870001,040815,,,*14
$GPRMC,055056.000,A,2743.39740,N,11117.93360,E,0.000000,21.940001,040815,,,*18
$GPRMC,055057.000,A,2743.39720,N,11117.93370,E,0.000000,22.860001,040815,,,*1E
$GPRMC,055058.000,A,2743.39700,N,11117.93370,E,0.000000,23.650000,040815,,,*1E
$GPRMC,055059.000,A,2743.39690,N,11117.93390,E,0.000000,24.420000,040815,,,*1B
$GPRMC,055100.000,A,2743.39660,N,11117.93410,E,0.000000,25.100000,040815,,,*10
$GPRMC,055101.000,A,2743.39580,N,11117.93380,E,0.000000,25.690001,040815,,,*1D
$GPRMC,055102.000,A,2743.39480,N,11117.93330,E,0.000000,26.900000,040815,,,*10
$GPRMC,055103.000,A,2743.39440,N,11117.93280,E,0.000000,22.790001,040815,,,*15
$GPRMC,055104.000,A,2743.39390,N,11117.93230,E,0.000000,17.160000,040815,,,*1D
$GPRMC,055105.000,A,2743.39290,N,11117.93220,E,0.000000,18.860001,040815,,,*1B
$GPRMC,055106.000,A,2743.39180,N,11117.93190,E,0.000000,20.030001,040815,,,*14
$GPRMC,055107.000,A,2743.39000,N,11117.93110,E,0.000000,20.570000,040815,,,*14
$GPRMC,055108.000,A,2743.38960,N,11117.93090,E,0.000000,20.549999,040815,,,*1F
$GPRMC,055109.000,A,2743.38960,N,11117.93090,E,0.000000,20.549999,040815,,,*1E
$GPRMC,055112.000,A,2743.38650,N,11117.93040,E,0.000000,20.820000,040815,,,*1E
$GPRMC,055113.000,A,2743.38660,N,11117.93050,E,0.000000,20.879999,040815,,,*18
$GPRMC,055114.000,A,2743.38660,N,11117.93060,E,0.000000,24.420000,040815,,,*11
$GPRMC,055115.000,A,2743.38660,N,11117.93060,E,0.000000,24.420000,040815,,,*10
$GPRMC,055116.000,A,2743.38660,N,11117.93060,E,0.000000,24.420000,040815,,,*13
$GPRMC,055117.000,A,2743.38660,N,11117.93060,E,0.000000,24.420000,040815,,,*12
$GPRMC,055118.000,A,2743.38660,N,11117.93060,E,0.000000,24.420000,040815,,,*1D
$GPRMC,055119.000,A,2743.38660,N,11117.93060,E,0.000000,24.420000,040815,,,*1C
$GPRMC,055120.000,A,2743.38660,N,11117.93060,E,0.000000,24.420000,040815,,,*16
$GPRMC,055121.000,A,2743.38660,N,11117.93060,E,0.000000,24.420000,040815,,,*17
$GPRMC,055122.000,A,2743.38660,N,11117.93060,E,0.000000,24.420000,040815,,,*14
$GPRMC,055123.000,A,2743.38660,N,11117.93060,E,0.000000,24.420000,040815,,,*15
$GPRMC,055124.000,A,2743.38660,N,11117.93060,E,0.000000,24.420000,040815,,,*12
$GPRMC,055125.000,A,2743.38660,N,11117.93060,E,0.000000,24.420000,040815,,,*13
$GPRMC,055126.000,A,2743.38660,N,11117.93060,E,0.000000,24.420000,040815,,,*10
$GPRMC,055127.000,A,2743.37910,N,11117.93120,E,0.000000,152.300003,040815,,,*25
$GPRMC,055128.000,A,2743.37680,N,11117.93170,E,0.000000,156.570007,040815,,,*28
$GPRMC,055129.000,A,2743.37450,N,11117.93200,E,0.000000,160.720001,040815,,,*26
$GPRMC,055130.000,A,2743.37190,N,11117.93330,E,0.000000,158.589996,040815,,,*28
$GPRMC,055131.000,A,2743.36900,N,11117.93450,E,0.000000,157.240005,040815,,,*26
$GPRMC,055132.000,A,2743.36710,N,11117.93530,E,0.000000,156.940002,040815,,,*20
$GPRMC,055133.000,A,2743.36490,N,11117.93630,E,0.000000,156.250000,040815,,,*21
$GPRMC,055134.000,A,2743.36310,N,11117.93610,E,0.000000,158.740005,040815,,,*24
$GPRMC,055135.000,A,2743.36170,N,11117.93700,E,0.000000,158.020004,040815,,,*21
$GPRMC,055136.000,A,2743.36060,N,11117.93770,E,0.000000,158.369995,040815,,,*2A
$GPRMC,055137.000,A,2743.35930,N,11117.93760,E,0.000000,159.410004,040815,,,*2C
$GPRMC,055138.000,A,2743.35880,N,11117.93780,E,0.000000,160.199997,040815,,,*2A
$GPRMC,055139.000,A,2743.35830,N,11117.93790,E,0.000000,160.639999,040815,,,*22
$GPRMC,055140.000,A,2743.35770,N,11117.93770,E,0.000000,161.990005,040815,,,*28
$GPRMC,055141.000,A,2743.35730,N,11117.93910,E,0.000000,156.339996,040815,,,*2B
$GPRMC,055142.000,A,2743.35730,N,11117.94020,E,0.000000,151.110001,040815,,,*2C
$GPRMC,055143.000,A,2743.35700,N,11117.94090,E,0.000000,148.270004,040815,,,*2D
$GPRMC,055144.000,A,2743.35670,N,11117.94070,E,0.000000,149.940002,040815,,,*2D
$GPRMC,055145.000,A,2743.35640,N,11117.94070,E,0.000000,151.339996,040815,,,*26
$GPRMC,055146.000,A,2743.35720,N,11117.94070,E,0.000000,151.110001,040815,,,*2C
$GPRMC,055147.000,A,2743.35770,N,11117.94070,E,0.000000,150.960007,040815,,,*20
$GPRMC,055148.000,A,2743.35790,N,11117.94110,E,0.000000,148.720001,040815,,,*23
$GPRMC,055149.000,A,2743.35850,N,11117.94110,E,0.000000,148.860001,040815,,,*2A
$GPRMC,055150.000,A,2743.35880,N,11117.94110,E,0.000000,148.369995,040815,,,*29
$GPRMC,055151.000,A,2743.35920,N,11117.94110,E,0.000000,149.479996,040815,,,*27
$GPRMC,055152.000,A,2743.35990,N,11117.94120,E,0.000000,146.550003,040815,,,*2C
$GPRMC,055153.000,A,2743.36020,N,11117.94100,E,0.000000,146.759995,040815,,,*23
$GPRMC,055154.000,A,2743.36110,N,11117.94070,E,0.000000,148.559998,040815,,,*21
$GPRMC,055155.000,A,2743.36090,N,11117.94060,E,0.000000,150.160004,040815,,,*23
$GPRMC,055156.000,A,2743.36040,N,11117.94080,E,0.000000,149.710007,040815,,,*29
$GPRMC,055157.000,A,2743.35960,N,11117.94110,E,0.000000,148.910004,040815,,,*24
$GPRMC,055158.000,A,2743.35900,N,11117.94140,E,0.000000,148.300003,040815,,,*24
$GPRMC,055159.000,A,2743.35850,N,11117.94160,E,0.000000,148.479996,040815,,,*2F
$GPRMC,055200.000,A,2743.35830,N,11117.94170,E,0.000000,148.619995,040815,,,*20
